[{"address":"1499 New Walkertown Rd, Winston Salem, NC 27101","geometry":{"lat":36.102868,"lng":-80.225629},"storeName":""},{"address":"21 Sparta Rd, North Wilkesboro, NC 28659","geometry":{"lat":36.180259,"lng":-81.148786},"storeName":""},{"address":"1210 E Court St, Marion, NC 28752","geometry":{"lat":35.693166,"lng":-81.990999},"storeName":""},{"address":"1072 N Main St, Walnut Cove, NC 27052","geometry":{"lat":36.311707,"lng":-80.138734},"storeName":""},{"address":"1605 Way St, Reidsville, NC 27320","geometry":{"lat":36.341232,"lng":-79.657389},"storeName":"1605 Way St"},{"address":"120 Bost Rd, Morganton, NC 28655","geometry":{"lat":35.754368,"lng":-81.71411},"storeName":""},{"address":"110 E Fairfield Rd, High Point, NC 27263","geometry":{"lat":35.924067,"lng":-79.979528},"storeName":"110 E. FAIRFIELD DR"},{"address":"616 S State, Yadkinville, NC 27055","geometry":{"lat":36.124696,"lng":-80.661209},"storeName":""},{"address":"7760 N Point Blvd, Winston-Salem, NC 27106","geometry":{"lat":36.151379,"lng":-80.283064},"storeName":""},{"address":"629 N Andy Griffith Pkwy, Mount Airy, NC 27030","geometry":{"lat":36.512796,"lng":-80.625758},"storeName":""},{"address":"1526 N Bridge St, Elkin, NC 28621","geometry":{"lat":36.271998,"lng":-80.853151},"storeName":""},{"address":"4615 Yadkinville Rd, Pfafftown, NC 27040","geometry":{"lat":36.154391,"lng":-80.358486},"storeName":""},{"address":"4548 Us Highway 220 N, Summerfield, NC 27358","geometry":{"lat":36.192827,"lng":-79.89067},"storeName":""},{"address":"980 S Main St, Kernersville, NC 27284","geometry":{"lat":36.110003,"lng":-80.096807},"storeName":""},{"address":"4653 W Market St, Greensboro, NC 27407","geometry":{"lat":36.068848,"lng":-79.866683},"storeName":""},{"address":"Reidsville, NC 27320","geometry":{"lat":36.358275,"lng":-79.742001},"storeName":""},{"address":"614 Burton St, Madison, NC 27025","geometry":{"lat":36.40168,"lng":-79.970847},"storeName":""},{"address":"350 Watauga Village Dr, Boone, NC 28607","geometry":{"lat":36.19629,"lng":-81.656694},"storeName":""},{"address":"3800 Reynolda Rd, Winston-Salem, NC 27106","geometry":{"lat":36.161913,"lng":-80.327496},"storeName":"3800 REYNOLDA ROAD"},{"address":"1050 Bethania Rural Hall Rd, Rural Hall, NC 27045","geometry":{"lat":36.212366,"lng":-80.302135},"storeName":""},{"address":"110 Fiddlers Run Blvd, Morganton, NC 28655","geometry":{"lat":35.71523,"lng":-81.670289},"storeName":"110 Fiddlers Run Blvd"},{"address":"733 E Main St, Jefferson, NC 28640","geometry":{"lat":36.421629,"lng":-81.458993},"storeName":""},{"address":"2116 Morganton Blvd SW, Lenoir, NC 28645","geometry":{"lat":35.897379,"lng":-81.565898},"storeName":""},{"address":"Morganton, NC 28655","geometry":{"lat":35.772992,"lng":-81.676229},"storeName":""},{"address":"Millers Creek, NC 28651","geometry":{"lat":36.19091,"lng":-81.23563},"storeName":"2931 N Old North Carolina Hwy 16"},{"address":"600 E Atkins St, Dobson, NC 27017","geometry":{"lat":36.394117,"lng":-80.715917},"storeName":""},{"address":"7605 State Hwy 68, Oak Ridge, NC 27310","geometry":{"lat":36.208246,"lng":-79.988281},"storeName":"7605 NC HWY 68 N"},{"address":"205 E Meadow Rd, Eden, NC 27288","geometry":{"lat":36.509438,"lng":-79.739191},"storeName":""},{"address":"3935 Brian Jordan Pl, High Point, NC 27265","geometry":{"lat":36.033087,"lng":-79.961835},"storeName":""},{"address":"118 E Main St, Jamestown, NC 27282","geometry":{"lat":35.994952,"lng":-79.934076},"storeName":""},{"address":"Newton, NC 28658","geometry":{"lat":35.631914,"lng":-81.17193},"storeName":"2380 W North Carolina 10"},{"address":"1300 Westwood Ln, Wilkesboro, NC 28697","geometry":{"lat":36.132365,"lng":-81.166565},"storeName":""},{"address":"2316 E Market St, Greensboro, NC 27401","geometry":{"lat":36.075752,"lng":-79.757019},"storeName":""},{"address":"1864 421 S, Boone, NC 28607","geometry":{"lat":36.227013,"lng":-81.610608},"storeName":"1864 OLD 421 S"},{"address":"6370 State Hwy 66 S, King, NC 27021","geometry":{"lat":36.302614,"lng":-80.329717},"storeName":""},{"address":"511 Us Hwy 70 E, Hildebran, NC 28637","geometry":{"lat":35.714105,"lng":-81.420852},"storeName":""},{"address":"3008 Old Hollow Rd, Walkertown, NC 27051","geometry":{"lat":36.167817,"lng":-80.151981},"storeName":""},{"address":"4709 Lawndale Dr, Greensboro, NC 27455","geometry":{"lat":36.139118,"lng":-79.833513},"storeName":""},{"address":"1136 W Pine St, Mount Airy, NC 27030","geometry":{"lat":36.501444,"lng":-80.632468},"storeName":""},{"address":"2208 Golden Gate Dr, Greensboro, NC 27405","geometry":{"lat":36.10267,"lng":-79.782329},"storeName":""},{"address":"617 N Main St, Kernersville, NC 27284","geometry":{"lat":36.128708,"lng":-80.065654},"storeName":""},{"address":"1911 Coliseum Blvd, Greensboro, NC 27403","geometry":{"lat":36.051155,"lng":-79.821358},"storeName":""},{"address":"3078 Hickory Blvd, Hudson, NC 28638","geometry":{"lat":35.847011,"lng":-81.471424},"storeName":""},{"address":"3555 Tynecastle Hwy, Banner Elk, NC 28604","geometry":{"lat":36.129833,"lng":-81.847204},"storeName":""},{"address":"705 S Main St, King, NC 27021","geometry":{"lat":36.26264,"lng":-80.360985},"storeName":"705 SOUTH MAIN STREET"},{"address":"1023 Alamance Church Rd, Greensboro, NC 27406","geometry":{"lat":36.042257,"lng":-79.7712},"storeName":""},{"address":"1215 W Lebanon St, Mount Airy, NC 27030","geometry":{"lat":36.525287,"lng":-80.625473},"storeName":"1215 W Lebanon St"},{"address":"827 Main St W, Valdese, NC 28690","geometry":{"lat":35.745087,"lng":-81.574713},"storeName":""},{"address":"104 Thornburg Dr SE, Conover, NC 28613","geometry":{"lat":35.701522,"lng":-81.200275},"storeName":""},{"address":"3505 N Patterson Ave, Winston-Salem, NC 27105","geometry":{"lat":36.134812,"lng":-80.240616},"storeName":""},{"address":"Hickory, NC 28602","geometry":{"lat":35.672123,"lng":-81.387667},"storeName":""},{"address":"381 S Main St, Sparta, NC 28675","geometry":{"lat":36.502151,"lng":-81.11466},"storeName":"381 SOUTH MAIN ST"},{"address":"1316 Lees Chapel Rd, Greensboro, NC 27455","geometry":{"lat":36.133835,"lng":-79.786976},"storeName":""},{"address":"1107 E Lexington Ave, High Point, NC 27262","geometry":{"lat":35.979019,"lng":-79.999975},"storeName":""},{"address":"3220 Springs Rd NE, Hickory, NC 28601","geometry":{"lat":35.757174,"lng":-81.272539},"storeName":""},{"address":"E N St, Newton, NC 28658","geometry":{"lat":35.647654,"lng":-81.223393},"storeName":"1390 N Old North Carolina Hwy 16"},{"address":"1130 Freeway Dr, Reidsville, NC 27320","geometry":{"lat":36.326021,"lng":-79.68498},"storeName":""},{"address":"101 Valley Dr, Jonesville, NC 28642","geometry":{"lat":36.238717,"lng":-80.831545},"storeName":""},{"address":"120 W Meadowview Rd, Greensboro, NC 27406","geometry":{"lat":36.040253,"lng":-79.792662},"storeName":""},{"address":"2720 2nd Ave NW, Hickory, NC 28601","geometry":{"lat":35.737825,"lng":-81.383771},"storeName":""},{"address":"4634 Hicone Rd, Greensboro, NC 27405","geometry":{"lat":36.151124,"lng":-79.711647},"storeName":"4634 HICONE ROAD"},{"address":"2217 Fleming Rd, Greensboro, NC 27410","geometry":{"lat":36.124911,"lng":-79.905152},"storeName":""},{"address":"1230 Burkemont Ave, Morganton, NC 28655","geometry":{"lat":35.727546,"lng":-81.693274},"storeName":""},{"address":"847 Wilkesboro Blvd NE, Lenoir, NC 28645","geometry":{"lat":35.923494,"lng":-81.506881},"storeName":""},{"address":"10102 S Main St, High Point, NC 27263","geometry":{"lat":35.9006,"lng":-79.949555},"storeName":""},{"address":"7533 Valley Blvd, Blowing Rock, NC 28605","geometry":{"lat":36.137288,"lng":-81.670308},"storeName":""},{"address":"2705 N Main St, High Point, NC 27265","geometry":{"lat":35.992766,"lng":-80.032028},"storeName":"2705 N MAIN ST"},{"address":"647 S Key St, Pilot Mountain, NC 27041","geometry":{"lat":36.380132,"lng":-80.479579},"storeName":"647E S. KEY STREET"},{"address":"824 S Van Buren Rd, Eden, NC 27288","geometry":{"lat":36.486396,"lng":-79.737322},"storeName":"824 S VAN BUREN ROAD"},{"address":"2625 N Center St, Hickory, NC 28601","geometry":{"lat":35.76607,"lng":-81.332708},"storeName":""},{"address":"799 W Main Ave, Taylorsville, NC 28681","geometry":{"lat":35.921225,"lng":-81.189605},"storeName":""}]